{
  "type": "FeatureCollection",
  "features": [{
    "id": "2289323",
    "type": "Feature",
    "geometry": {
      "type": "Point",
      "coordinates": [2.391901, 48.859188]
    },
    "properties": {
      "name": "ABÉLARD Pierre",
      "type": "edifice_religieux"
    }
  }, {
    "id": "2289324",
    "type": "Feature",
    "geometry": {
      "type": "Point",
      "coordinates": [2.394934, 48.860722]
    },
    "properties": {
      "name": "ABOVILLE Augustin Gabriel d'",
      "type": "edifice_religieux"
    }
  }, {
    "id": "2289325",
    "type": "Feature",
    "geometry": {
      "type": "Point",
      "coordinates": [2.394934, 48.860722]
    },
    "properties": {
      "name": "ABOVILLE Augustin Marie d'",
      "type": "edifice_religieux"
    }
  }, {
    "id": "2289326",
    "type": "Feature",
    "geometry": {
      "type": "Point",
      "coordinates": [2.394934, 48.860722]
    },
    "properties": {
      "name": "ABOVILLE François Marie d'",
      "type": "edifice_religieux"
    }
  }, {
    "id": "2289327",
    "type": "Feature",
    "geometry": {
      "type": "Point",
      "coordinates": [2.399096, 48.861015]
    },
    "properties": {
      "name": "ALAIN (Émile-Auguste CHARTIER)",
      "type": "edifice_religieux"
    }
  }, {
    "id": "2289328",
    "type": "Feature",
    "geometry": {
      "type": "Point",
      "coordinates": [2.39491, 48.861065]
    },
    "properties": {
      "name": "ALAMO Frank ",
      "type": "edifice_religieux"
    }
  }, {
    "id": "2289329",
    "type": "Feature",
    "geometry": {
      "type": "Point",
      "coordinates": [2.394513, 48.862309]
    },
    "properties": {
      "name": "Allan KARDEC (Hippolyte Léon DENIZARD RIVAIL)",
      "type": "edifice_religieux"
    }
  }, {
    "id": "2289330",
    "type": "Feature",
    "geometry": {
      "type": "Point",
      "coordinates": [2.390127, 48.861694]
    },
    "properties": {
      "name": "ALPHAND Jean-Charles",
      "type": "edifice_religieux"
    }
  }, {
    "id": "2289331",
    "type": "Feature",
    "geometry": {
      "type": "Point",
      "coordinates": [2.395365, 48.858398]
    },
    "properties": {
      "name": "ANDRÉ Antoine Balthazar Joseph d'",
      "type": "edifice_religieux"
    }
  }, {
    "id": "2289332",
    "type": "Feature",
    "geometry": {
      "type": "Point",
      "coordinates": [2.391342, 48.860985]
    },
    "properties": {
      "name": "ANSQUER Vincent ",
      "type": "edifice_religieux"
    }
  }, {
    "id": "2289333",
    "type": "Feature",
    "geometry": {
      "type": "Point",
      "coordinates": [2.399373, 48.860458]
    },
    "properties": {
      "name": "ANTRANIK Ozanian",
      "type": "edifice_religieux"
    }
  }, {
    "id": "2289334",
    "type": "Feature",
    "geometry": {
      "type": "Point",
      "coordinates": [2.39472, 48.862656]
    },
    "properties": {
      "name": "APOLLINAIRE Guillaume",
      "type": "edifice_religieux"
    }
  }, {
    "id": "2289335",
    "type": "Feature",
    "geometry": {
      "type": "Point",
      "coordinates": [2.393977, 48.861172]
    },
    "properties": {
      "name": "APPEL Karel ",
      "type": "edifice_religieux"
    }
  }, {
    "id": "2289336",
    "type": "Feature",
    "geometry": {
      "type": "Point",
      "coordinates": [2.391114, 48.860535]
    },
    "properties": {
      "name": "ARAGO François",
      "type": "edifice_religieux"
    }
  }, {
    "id": "2289337",
    "type": "Feature",
    "geometry": {
      "type": "Point",
      "coordinates": [2.391901, 48.859188]
    },
    "properties": {
      "name": "ARGENTEUIL Héloïse d'",
      "type": "edifice_religieux"
    }
  }, {
    "id": "2289338",
    "type": "Feature",
    "geometry": {
      "type": "Point",
      "coordinates": [2.392088, 48.860607]
    },
    "properties": {
      "name": "ASTIER de la VIGERIE Emmanuel d'",
      "type": "edifice_religieux"
    }
  }, {
    "id": "2289339",
    "type": "Feature",
    "geometry": {
      "type": "Point",
      "coordinates": [2.392166, 48.860764]
    },
    "properties": {
      "name": "ASTIER de la VIGERIE François d'",
      "type": "edifice_religieux"
    }
  }, {
    "id": "2289340",
    "type": "Feature",
    "geometry": {
      "type": "Point",
      "coordinates": [2.392804, 48.859787]
    },
    "properties": {
      "name": "ASTURIAS Miguel Ángel",
      "type": "edifice_religieux"
    }
  }, {
    "id": "2289341",
    "type": "Feature",
    "geometry": {
      "type": "Point",
      "coordinates": [2.397395, 48.861099]
    },
    "properties": {
      "name": "AUBIN Tony ",
      "type": "edifice_religieux"
    }
  }, {
    "id": "2289342",
    "type": "Feature",
    "geometry": {
      "type": "Point",
      "coordinates": [2.39312, 48.862774]
    },
    "properties": {
      "name": "BALZAC Honoré de",
      "type": "edifice_religieux"
    }
  }, {
    "id": "2289343",
    "type": "Feature",
    "geometry": {
      "type": "Point",
      "coordinates": [2.392592, 48.861855]
    },
    "properties": {
      "name": "BARBEDIENNE Ferdinand",
      "type": "edifice_religieux"
    }
  }, {
    "id": "2289344",
    "type": "Feature",
    "geometry": {
      "type": "Point",
      "coordinates": [2.399848, 48.860168]
    },
    "properties": {
      "name": "BARBUSSE Henri ",
      "type": "edifice_religieux"
    }
  }, {
    "id": "2289345",
    "type": "Feature",
    "geometry": {
      "type": "Point",
      "coordinates": [2.395985, 48.859138]
    },
    "properties": {
      "name": "BARRAS Paul ",
      "type": "edifice_religieux"
    }
  }, {
    "id": "2289346",
    "type": "Feature",
    "geometry": {
      "type": "Point",
      "coordinates": [2.393279, 48.862656]
    },
    "properties": {
      "name": "BARYE Antoine-Louis",
      "type": "edifice_religieux"
    }
  }, {
    "id": "2289347",
    "type": "Feature",
    "geometry": {
      "type": "Point",
      "coordinates": [2.39341, 48.860252]
    },
    "properties": {
      "name": "BASHUNG Alain ",
      "type": "edifice_religieux"
    }
  }, {
    "id": "2289348",
    "type": "Feature",
    "geometry": {
      "type": "Point",
      "coordinates": [2.394698, 48.861481]
    },
    "properties": {
      "name": "BAUDELOCQUE Jean-Louis",
      "type": "edifice_religieux"
    }
  }, {
    "id": "2289349",
    "type": "Feature",
    "geometry": {
      "type": "Point",
      "coordinates": [2.391594, 48.860832]
    },
    "properties": {
      "name": "BAUDRY Paul Jacques Aimée",
      "type": "edifice_religieux"
    }
  }, {
    "id": "2289350",
    "type": "Feature",
    "geometry": {
      "type": "Point",
      "coordinates": [2.39341, 48.862892]
    },
    "properties": {
      "name": "BEAUCÉ Jean-Adolphe ",
      "type": "edifice_religieux"
    }
  }, {
    "id": "2289351",
    "type": "Feature",
    "geometry": {
      "type": "Point",
      "coordinates": [2.393453, 48.863163]
    },
    "properties": {
      "name": "BEAUJOUR Félix de",
      "type": "edifice_religieux"
    }
  }, {
    "id": "2289352",
    "type": "Feature",
    "geometry": {
      "type": "Point",
      "coordinates": [2.396264, 48.858841]
    },
    "properties": {
      "name": "BEAUMARCHAIS (Pierre-Augustin CARON de BEAUMARCHAIS) ",
      "type": "edifice_religieux"
    }
  }, {
    "id": "2289353",
    "type": "Feature",
    "geometry": {
      "type": "Point",
      "coordinates": [2.394935, 48.861141]
    },
    "properties": {
      "name": "BÉCAUD Gilbert (François Gilbert Léopold Silly)",
      "type": "edifice_religieux"
    }
  }, {
    "id": "2289354",
    "type": "Feature",
    "geometry": {
      "type": "Point",
      "coordinates": [2.396893, 48.85891]
    },
    "properties": {
      "name": "BÉHAGUE Octave de",
      "type": "edifice_religieux"
    }
  }, {
    "id": "2289355",
    "type": "Feature",
    "geometry": {
      "type": "Point",
      "coordinates": [2.393191, 48.858932]
    },
    "properties": {
      "name": "BELLEMARE Pierre",
      "type": "edifice_religieux"
    }
  }, {
    "id": "2289356",
    "type": "Feature",
    "geometry": {
      "type": "Point",
      "coordinates": [2.393024, 48.860439]
    },
    "properties": {
      "name": "BELLINI Vincenzo",
      "type": "edifice_religieux"
    }
  }, {
    "id": "2289357",
    "type": "Feature",
    "geometry": {
      "type": "Point",
      "coordinates": [2.394563, 48.862293]
    },
    "properties": {
      "name": "BERLINER Gérard (BERLINER Raymond)",
      "type": "edifice_religieux"
    }
  }, {
    "id": "2289358",
    "type": "Feature",
    "geometry": {
      "type": "Point",
      "coordinates": [2.393582, 48.860634]
    },
    "properties": {
      "name": "BERNARD Claude",
      "type": "edifice_religieux"
    }
  }, {
    "id": "2289359",
    "type": "Feature",
    "geometry": {
      "type": "Point",
      "coordinates": [2.392917, 48.860424]
    },
    "properties": {
      "name": "BERNARDIN de SAINT-PIERRE Jacques-Henri ",
      "type": "edifice_religieux"
    }
  }, {
    "id": "2289360",
    "type": "Feature",
    "geometry": {
      "type": "Point",
      "coordinates": [2.395384, 48.861328]
    },
    "properties": {
      "name": "BERNHARDT Sarah (Henriette-Marie-Sarah Bernardt)",
      "type": "edifice_religieux"
    }
  }, {
    "id": "2289361",
    "type": "Feature",
    "geometry": {
      "type": "Point",
      "coordinates": [2.397298, 48.859528]
    },
    "properties": {
      "name": "BESSIÈRES Julien ",
      "type": "edifice_religieux"
    }
  }, {
    "id": "2289362",
    "type": "Feature",
    "geometry": {
      "type": "Point",
      "coordinates": [2.396402, 48.861458]
    },
    "properties": {
      "name": "BÉZU André",
      "type": "edifice_religieux"
    }
  }, {
    "id": "2289363",
    "type": "Feature",
    "geometry": {
      "type": "Point",
      "coordinates": [2.394676, 48.86401]
    },
    "properties": {
      "name": "BIENVENÜE Fulgence",
      "type": "edifice_religieux"
    }
  }, {
    "id": "2289364",
    "type": "Feature",
    "geometry": {
      "type": "Point",
      "coordinates": [2.391787, 48.862324]
    },
    "properties": {
      "name": "BIZET Georges",
      "type": "edifice_religieux"
    }
  }, {
    "id": "2289365",
    "type": "Feature",
    "geometry": {
      "type": "Point",
      "coordinates": [2.391286, 48.861778]
    },
    "properties": {
      "name": "BLANC Louis",
      "type": "edifice_religieux"
    }
  }, {
    "id": "4401884",
    "type": "Feature",
    "geometry": {
      "type": "Point",
      "coordinates": [2.393413, 48.862247]
    },
    "properties": {
      "name": "BLANC Michel",
      "type": "edifice_religieux"
    }
  }, {
    "id": "2289366",
    "type": "Feature",
    "geometry": {
      "type": "Point",
      "coordinates": [2.396071, 48.861214]
    },
    "properties": {
      "name": "BLANQUI Auguste",
      "type": "edifice_religieux"
    }
  }, {
    "id": "2289367",
    "type": "Feature",
    "geometry": {
      "type": "Point",
      "coordinates": [2.396092, 48.859039]
    },
    "properties": {
      "name": "BOISSY D'ANGLAS François-Antoine de",
      "type": "edifice_religieux"
    }
  }, {
    "id": "2289368",
    "type": "Feature",
    "geometry": {
      "type": "Point",
      "coordinates": [2.398088, 48.860622]
    },
    "properties": {
      "name": "BONNE MAMAN (Rufina NOEGGERATH)",
      "type": "edifice_religieux"
    }
  }, {
    "id": "2289369",
    "type": "Feature",
    "geometry": {
      "type": "Point",
      "coordinates": [2.395651, 48.859703]
    },
    "properties": {
      "name": "BOURDIEU Pierre ",
      "type": "edifice_religieux"
    }
  }, {
    "id": "2289370",
    "type": "Feature",
    "geometry": {
      "type": "Point",
      "coordinates": [2.392423, 48.860535]
    },
    "properties": {
      "name": "BRANLY Édouard",
      "type": "edifice_religieux"
    }
  }, {
    "id": "2289371",
    "type": "Feature",
    "geometry": {
      "type": "Point",
      "coordinates": [2.389226, 48.860722]
    },
    "properties": {
      "name": "BRASSEUR Claude",
      "type": "edifice_religieux"
    }
  }, {
    "id": "2289372",
    "type": "Feature",
    "geometry": {
      "type": "Point",
      "coordinates": [2.389226, 48.860722]
    },
    "properties": {
      "name": "BRASSEUR Pierre",
      "type": "edifice_religieux"
    }
  }, {
    "id": "2289373",
    "type": "Feature",
    "geometry": {
      "type": "Point",
      "coordinates": [2.395513, 48.859776]
    },
    "properties": {
      "name": "BRILLAT-SAVARIN Jean Anthelme",
      "type": "edifice_religieux"
    }
  }, {
    "id": "2289374",
    "type": "Feature",
    "geometry": {
      "type": "Point",
      "coordinates": [2.392809, 48.860634]
    },
    "properties": {
      "name": "BRONGNIART Alexandre",
      "type": "edifice_religieux"
    }
  }, {
    "id": "2289375",
    "type": "Feature",
    "geometry": {
      "type": "Point",
      "coordinates": [2.395227, 48.858196]
    },
    "properties": {
      "name": "BROSSET Claude ",
      "type": "edifice_religieux"
    }
  }, {
    "id": "4401898",
    "type": "Feature",
    "geometry": {
      "type": "Point",
      "coordinates": [2.398528, 48.860065]
    },
    "properties": {
      "name": "BUGATTI Ettore",
      "type": "edifice_religieux"
    }
  }, {
    "id": "2289295",
    "type": "Feature",
    "geometry": {
      "type": "Point",
      "coordinates": [2.39986, 48.859917]
    },
    "properties": {
      "name": "CACHIN Marcel",
      "type": "edifice_religieux"
    }
  }, {
    "id": "2289296",
    "type": "Feature",
    "geometry": {
      "type": "Point",
      "coordinates": [2.392123, 48.862415]
    },
    "properties": {
      "name": "CAILLEBOTTE Gustave",
      "type": "edifice_religieux"
    }
  }, {
    "id": "2289297",
    "type": "Feature",
    "geometry": {
      "type": "Point",
      "coordinates": [2.396068, 48.862656]
    },
    "properties": {
      "name": "CALLAS Maria (Sophia Cecelia KALOS)",
      "type": "edifice_religieux"
    }
  }, {
    "id": "2289298",
    "type": "Feature",
    "geometry": {
      "type": "Point",
      "coordinates": [2.396457, 48.859253]
    },
    "properties": {
      "name": "CAMBACÉRÈS Jean-Jacques-Régis de",
      "type": "edifice_religieux"
    }
  }, {
    "id": "2289299",
    "type": "Feature",
    "geometry": {
      "type": "Point",
      "coordinates": [2.392573, 48.861553]
    },
    "properties": {
      "name": "CARTELLIER Pierre ",
      "type": "edifice_religieux"
    }
  }, {
    "id": "2289300",
    "type": "Feature",
    "geometry": {
      "type": "Point",
      "coordinates": [2.393431, 48.86039]
    },
    "properties": {
      "name": "CHABOT André",
      "type": "edifice_religieux"
    }
  }, {
    "id": "2289301",
    "type": "Feature",
    "geometry": {
      "type": "Point",
      "coordinates": [2.392547, 48.860558]
    },
    "properties": {
      "name": "CHABROL Claude ",
      "type": "edifice_religieux"
    }
  }, {
    "id": "2289302",
    "type": "Feature",
    "geometry": {
      "type": "Point",
      "coordinates": [2.396695, 48.858746]
    },
    "properties": {
      "name": "CHAMANS de LAVALETTE Antoine Marie ",
      "type": "edifice_religieux"
    }
  }, {
    "id": "2289303",
    "type": "Feature",
    "geometry": {
      "type": "Point",
      "coordinates": [2.394088, 48.859985]
    },
    "properties": {
      "name": "CHAMPOLLION Jean-François",
      "type": "edifice_religieux"
    }
  }, {
    "id": "2289304",
    "type": "Feature",
    "geometry": {
      "type": "Point",
      "coordinates": [2.395148, 48.85907]
    },
    "properties": {
      "name": "CHAPPE Claude ",
      "type": "edifice_religieux"
    }
  }, {
    "id": "2289305",
    "type": "Feature",
    "geometry": {
      "type": "Point",
      "coordinates": [2.39826, 48.861919]
    },
    "properties": {
      "name": "CHAPTAL Jean-Antoine",
      "type": "edifice_religieux"
    }
  }, {
    "id": "2289306",
    "type": "Feature",
    "geometry": {
      "type": "Point",
      "coordinates": [2.394645, 48.859112]
    },
    "properties": {
      "name": "CHÉREAU Patrice",
      "type": "edifice_religieux"
    }
  }, {
    "id": "2289307",
    "type": "Feature",
    "geometry": {
      "type": "Point",
      "coordinates": [2.392789, 48.860172]
    },
    "properties": {
      "name": "CHERUBINI Luigi ",
      "type": "edifice_religieux"
    }
  }, {
    "id": "2289308",
    "type": "Feature",
    "geometry": {
      "type": "Point",
      "coordinates": [2.392808, 48.860123]
    },
    "properties": {
      "name": "CHOPIN Frédéric",
      "type": "edifice_religieux"
    }
  }, {
    "id": "2289309",
    "type": "Feature",
    "geometry": {
      "type": "Point",
      "coordinates": [2.399909, 48.859821]
    },
    "properties": {
      "name": "CLÉMENT Jean-Baptiste",
      "type": "edifice_religieux"
    }
  }, {
    "id": "2289310",
    "type": "Feature",
    "geometry": {
      "type": "Point",
      "coordinates": [2.392798, 48.859673]
    },
    "properties": {
      "name": "CLIDAT France ",
      "type": "edifice_religieux"
    }
  }, {
    "id": "2289311",
    "type": "Feature",
    "geometry": {
      "type": "Point",
      "coordinates": [2.390578, 48.86058]
    },
    "properties": {
      "name": "COLETTE (Sidonie-Gabrielle COLETTE)",
      "type": "edifice_religieux"
    }
  }, {
    "id": "2289312",
    "type": "Feature",
    "geometry": {
      "type": "Point",
      "coordinates": [2.394232, 48.859787]
    },
    "properties": {
      "name": "COMTE Auguste",
      "type": "edifice_religieux"
    }
  }, {
    "id": "2289313",
    "type": "Feature",
    "geometry": {
      "type": "Point",
      "coordinates": [2.39547, 48.859097]
    },
    "properties": {
      "name": "CONSTANT Benjamin",
      "type": "edifice_religieux"
    }
  }, {
    "id": "2289314",
    "type": "Feature",
    "geometry": {
      "type": "Point",
      "coordinates": [2.398152, 48.859394]
    },
    "properties": {
      "name": "COQUATRIX Bruno",
      "type": "edifice_religieux"
    }
  }, {
    "id": "2289315",
    "type": "Feature",
    "geometry": {
      "type": "Point",
      "coordinates": [2.396898, 48.861305]
    },
    "properties": {
      "name": "CORNÉLY Jules ",
      "type": "edifice_religieux"
    }
  }, {
    "id": "2289316",
    "type": "Feature",
    "geometry": {
      "type": "Point",
      "coordinates": [2.394612, 48.860905]
    },
    "properties": {
      "name": "COROT Jean-Baptiste Camille",
      "type": "edifice_religieux"
    }
  }, {
    "id": "2289317",
    "type": "Feature",
    "geometry": {
      "type": "Point",
      "coordinates": [2.396886, 48.860394]
    },
    "properties": {
      "name": "COURNET Frédéric",
      "type": "edifice_religieux"
    }
  }, {
    "id": "2289318",
    "type": "Feature",
    "geometry": {
      "type": "Point",
      "coordinates": [2.397316, 48.862328]
    },
    "properties": {
      "name": "COURTELINE Georges",
      "type": "edifice_religieux"
    }
  }, {
    "id": "2289319",
    "type": "Feature",
    "geometry": {
      "type": "Point",
      "coordinates": [2.391602, 48.860722]
    },
    "properties": {
      "name": "COUTURE Thomas ",
      "type": "edifice_religieux"
    }
  }, {
    "id": "2289320",
    "type": "Feature",
    "geometry": {
      "type": "Point",
      "coordinates": [2.393908, 48.859352]
    },
    "properties": {
      "name": "CRISTIANI Hervé",
      "type": "edifice_religieux"
    }
  }, {
    "id": "2289321",
    "type": "Feature",
    "geometry": {
      "type": "Point",
      "coordinates": [2.39341, 48.862358]
    },
    "properties": {
      "name": "CROZATIER Charles ",
      "type": "edifice_religieux"
    }
  }, {
    "id": "2289322",
    "type": "Feature",
    "geometry": {
      "type": "Point",
      "coordinates": [2.392073, 48.859955]
    },
    "properties": {
      "name": "CUVIER Georges ",
      "type": "edifice_religieux"
    }
  }, {
    "id": "2289376",
    "type": "Feature",
    "geometry": {
      "type": "Point",
      "coordinates": [2.397138, 48.859051]
    },
    "properties": {
      "name": "DABADIE de BERNET Jean Melchior",
      "type": "edifice_religieux"
    }
  }, {
    "id": "2289377",
    "type": "Feature",
    "geometry": {
      "type": "Point",
      "coordinates": [2.396243, 48.862766]
    },
    "properties": {
      "name": "DAC Pierre ",
      "type": "edifice_religieux"
    }
  }, {
    "id": "2289378",
    "type": "Feature",
    "geometry": {
      "type": "Point",
      "coordinates": [2.391264, 48.863503]
    },
    "properties": {
      "name": "DALADIER Édouard",
      "type": "edifice_religieux"
    }
  }, {
    "id": "2289379",
    "type": "Feature",
    "geometry": {
      "type": "Point",
      "coordinates": [2.395277, 48.860199]
    },
    "properties": {
      "name": "DAUDET Alphonse",
      "type": "edifice_religieux"
    }
  }, {
    "id": "2289380",
    "type": "Feature",
    "geometry": {
      "type": "Point",
      "coordinates": [2.394698, 48.860874]
    },
    "properties": {
      "name": "DAUMIER Honoré",
      "type": "edifice_religieux"
    }
  }, {
    "id": "2289381",
    "type": "Feature",
    "geometry": {
      "type": "Point",
      "coordinates": [2.394924, 48.861164]
    },
    "properties": {
      "name": "DAUMIER Sophie ",
      "type": "edifice_religieux"
    }
  }, {
    "id": "2289382",
    "type": "Feature",
    "geometry": {
      "type": "Point",
      "coordinates": [2.396336, 48.859352]
    },
    "properties": {
      "name": "DAVID d'ANGERS Pierre-Jean",
      "type": "edifice_religieux"
    }
  }, {
    "id": "2289383",
    "type": "Feature",
    "geometry": {
      "type": "Point",
      "coordinates": [2.392359, 48.861355]
    },
    "properties": {
      "name": "DAVID Jacques-Louis",
      "type": "edifice_religieux"
    }
  }, {
    "id": "2289384",
    "type": "Feature",
    "geometry": {
      "type": "Point",
      "coordinates": [2.396438, 48.858932]
    },
    "properties": {
      "name": "DAVOUT Louis Nicolas ",
      "type": "edifice_religieux"
    }
  }, {
    "id": "2289385",
    "type": "Feature",
    "geometry": {
      "type": "Point",
      "coordinates": [2.39632, 48.861126]
    },
    "properties": {
      "name": "DEGEORGE Charles ",
      "type": "edifice_religieux"
    }
  }, {
    "id": "2289386",
    "type": "Feature",
    "geometry": {
      "type": "Point",
      "coordinates": [2.394382, 48.859741]
    },
    "properties": {
      "name": "DEHERME Georges",
      "type": "edifice_religieux"
    }
  }, {
    "id": "2289387",
    "type": "Feature",
    "geometry": {
      "type": "Point",
      "coordinates": [2.392509, 48.861526]
    },
    "properties": {
      "name": "DEL DUCA Cino",
      "type": "edifice_religieux"
    }
  }, {
    "id": "2289388",
    "type": "Feature",
    "geometry": {
      "type": "Point",
      "coordinates": [2.393638, 48.862785]
    },
    "properties": {
      "name": "DELACROIX Eugène",
      "type": "edifice_religieux"
    }
  }, {
    "id": "2289389",
    "type": "Feature",
    "geometry": {
      "type": "Point",
      "coordinates": [2.393236, 48.862656]
    },
    "properties": {
      "name": "DELAVIGNE Casimir ",
      "type": "edifice_religieux"
    }
  }, {
    "id": "2289390",
    "type": "Feature",
    "geometry": {
      "type": "Point",
      "coordinates": [2.39345, 48.862923]
    },
    "properties": {
      "name": "DELESCLUZE Charles-Léon",
      "type": "edifice_religieux"
    }
  }, {
    "id": "2289391",
    "type": "Feature",
    "geometry": {
      "type": "Point",
      "coordinates": [2.394, 48.862194]
    },
    "properties": {
      "name": "DELPECH Michel",
      "type": "edifice_religieux"
    }
  }, {
    "id": "2289392",
    "type": "Feature",
    "geometry": {
      "type": "Point",
      "coordinates": [2.392809, 48.860058]
    },
    "properties": {
      "name": "DESPROGES Pierre",
      "type": "edifice_religieux"
    }
  }, {
    "id": "2289393",
    "type": "Feature",
    "geometry": {
      "type": "Point",
      "coordinates": [2.395333, 48.862267]
    },
    "properties": {
      "name": "DIBANGO Manu",
      "type": "edifice_religieux"
    }
  }, {
    "id": "2289394",
    "type": "Feature",
    "geometry": {
      "type": "Point",
      "coordinates": [2.396307, 48.858898]
    },
    "properties": {
      "name": "DODU Juliette ",
      "type": "edifice_religieux"
    }
  }, {
    "id": "2289395",
    "type": "Feature",
    "geometry": {
      "type": "Point",
      "coordinates": [2.395243, 48.861404]
    },
    "properties": {
      "name": "DOLEGA Lucas",
      "type": "edifice_religieux"
    }
  }, {
    "id": "2289396",
    "type": "Feature",
    "geometry": {
      "type": "Point",
      "coordinates": [2.399826, 48.859886]
    },
    "properties": {
      "name": "DUCLOS Jacques",
      "type": "edifice_religieux"
    }
  }, {
    "id": "2289397",
    "type": "Feature",
    "geometry": {
      "type": "Point",
      "coordinates": [2.395418, 48.862427]
    },
    "properties": {
      "name": "DUNCAN Isadora ",
      "type": "edifice_religieux"
    }
  }, {
    "id": "2289398",
    "type": "Feature",
    "geometry": {
      "type": "Point",
      "coordinates": [2.396801, 48.858887]
    },
    "properties": {
      "name": "DUPUYTREN Guillaume ",
      "type": "edifice_religieux"
    }
  }, {
    "id": "2289399",
    "type": "Feature",
    "geometry": {
      "type": "Point",
      "coordinates": [2.399912, 48.859985]
    },
    "properties": {
      "name": "ÉLUARD Paul",
      "type": "edifice_religieux"
    }
  }, {
    "id": "2289400",
    "type": "Feature",
    "geometry": {
      "type": "Point",
      "coordinates": [2.391822, 48.862202]
    },
    "properties": {
      "name": "ENESCO Georges",
      "type": "edifice_religieux"
    }
  }, {
    "id": "2289401",
    "type": "Feature",
    "geometry": {
      "type": "Point",
      "coordinates": [2.396315, 48.862217]
    },
    "properties": {
      "name": "ERNST Max ",
      "type": "edifice_religieux"
    }
  }, {
    "id": "2289402",
    "type": "Feature",
    "geometry": {
      "type": "Point",
      "coordinates": [2.394465, 48.859673]
    },
    "properties": {
      "name": "EYMAR Ange Marie (d')",
      "type": "edifice_religieux"
    }
  }, {
    "id": "2289403",
    "type": "Feature",
    "geometry": {
      "type": "Point",
      "coordinates": [2.399611, 48.859703]
    },
    "properties": {
      "name": "FABIEN Colonel (Pierre GEORGES)",
      "type": "edifice_religieux"
    }
  }, {
    "id": "2289404",
    "type": "Feature",
    "geometry": {
      "type": "Point",
      "coordinates": [2.392187, 48.860874]
    },
    "properties": {
      "name": "FALGUIÈRE Alexandre",
      "type": "edifice_religieux"
    }
  }, {
    "id": "2289405",
    "type": "Feature",
    "geometry": {
      "type": "Point",
      "coordinates": [2.391651, 48.860733]
    },
    "properties": {
      "name": "FAURE Félix",
      "type": "edifice_religieux"
    }
  }, {
    "id": "2289406",
    "type": "Feature",
    "geometry": {
      "type": "Point",
      "coordinates": [2.388452, 48.861706]
    },
    "properties": {
      "name": "FECHNER Christian ",
      "type": "edifice_religieux"
    }
  }, {
    "id": "2289407",
    "type": "Feature",
    "geometry": {
      "type": "Point",
      "coordinates": [2.3962, 48.858757]
    },
    "properties": {
      "name": "FONTANES Jean-Pierre-Louis de",
      "type": "edifice_religieux"
    }
  }, {
    "id": "2289408",
    "type": "Feature",
    "geometry": {
      "type": "Point",
      "coordinates": [2.393883, 48.860046]
    },
    "properties": {
      "name": "FOURIER Joseph ",
      "type": "edifice_religieux"
    }
  }, {
    "id": "2289409",
    "type": "Feature",
    "geometry": {
      "type": "Point",
      "coordinates": [2.395577, 48.859097]
    },
    "properties": {
      "name": "FOY Maximilien Sébastien",
      "type": "edifice_religieux"
    }
  }, {
    "id": "2289410",
    "type": "Feature",
    "geometry": {
      "type": "Point",
      "coordinates": [2.393665, 48.859734]
    },
    "properties": {
      "name": "FRESNEL Augustin Jean",
      "type": "edifice_religieux"
    }
  }, {
    "id": "2289411",
    "type": "Feature",
    "geometry": {
      "type": "Point",
      "coordinates": [2.391889, 48.861507]
    },
    "properties": {
      "name": "GALLI-MARIÉ Célestine ",
      "type": "edifice_religieux"
    }
  }, {
    "id": "2289412",
    "type": "Feature",
    "geometry": {
      "type": "Point",
      "coordinates": [2.395062, 48.859463]
    },
    "properties": {
      "name": "GARNIER-PAGÈS Louis-Antoine",
      "type": "edifice_religieux"
    }
  }, {
    "id": "2289413",
    "type": "Feature",
    "geometry": {
      "type": "Point",
      "coordinates": [2.394376, 48.860481]
    },
    "properties": {
      "name": "GAUDIN Martin Michel Charles ",
      "type": "edifice_religieux"
    }
  }, {
    "id": "2289414",
    "type": "Feature",
    "geometry": {
      "type": "Point",
      "coordinates": [2.394655, 48.860649]
    },
    "properties": {
      "name": "GAY-LUSSAC Louis Joseph",
      "type": "edifice_religieux"
    }
  }, {
    "id": "2289415",
    "type": "Feature",
    "geometry": {
      "type": "Point",
      "coordinates": [2.394998, 48.85952]
    },
    "properties": {
      "name": "GEOFFROY SAINT-HILAIRE Étienne",
      "type": "edifice_religieux"
    }
  }, {
    "id": "2289416",
    "type": "Feature",
    "geometry": {
      "type": "Point",
      "coordinates": [2.392831, 48.860958]
    },
    "properties": {
      "name": "GÉRICAULT Théodore",
      "type": "edifice_religieux"
    }
  }, {
    "id": "2289417",
    "type": "Feature",
    "geometry": {
      "type": "Point",
      "coordinates": [2.396994, 48.860283]
    },
    "properties": {
      "name": "GILL André",
      "type": "edifice_religieux"
    }
  }, {
    "id": "2289418",
    "type": "Feature",
    "geometry": {
      "type": "Point",
      "coordinates": [2.39356, 48.862087]
    },
    "properties": {
      "name": "GIRARDOT Annie ",
      "type": "edifice_religieux"
    }
  }, {
    "id": "2289419",
    "type": "Feature",
    "geometry": {
      "type": "Point",
      "coordinates": [2.39635, 48.858799]
    },
    "properties": {
      "name": "GOBERT Jacques Nicolas ",
      "type": "edifice_religieux"
    }
  }, {
    "id": "2289420",
    "type": "Feature",
    "geometry": {
      "type": "Point",
      "coordinates": [2.398624, 48.860535]
    },
    "properties": {
      "name": "GOBETTI Piero",
      "type": "edifice_religieux"
    }
  }, {
    "id": "2289421",
    "type": "Feature",
    "geometry": {
      "type": "Point",
      "coordinates": [2.39619, 48.858555]
    },
    "properties": {
      "name": "GOUVION-SAINT-CYR Laurent de",
      "type": "edifice_religieux"
    }
  }, {
    "id": "2289422",
    "type": "Feature",
    "geometry": {
      "type": "Point",
      "coordinates": [2.397895, 48.860832]
    },
    "properties": {
      "name": "GRAMME Zénobe ",
      "type": "edifice_religieux"
    }
  }, {
    "id": "2289423",
    "type": "Feature",
    "geometry": {
      "type": "Point",
      "coordinates": [2.395663, 48.862175]
    },
    "properties": {
      "name": "GRAPPELLI Stéphane",
      "type": "edifice_religieux"
    }
  }, {
    "id": "2289424",
    "type": "Feature",
    "geometry": {
      "type": "Point",
      "coordinates": [2.395406, 48.860535]
    },
    "properties": {
      "name": "GREFFULHE Jean-Henry-Louis ",
      "type": "edifice_religieux"
    }
  }, {
    "id": "2289425",
    "type": "Feature",
    "geometry": {
      "type": "Point",
      "coordinates": [2.391662, 48.861107]
    },
    "properties": {
      "name": "GROUCHY Emmanuel de",
      "type": "edifice_religieux"
    }
  }, {
    "id": "2289426",
    "type": "Feature",
    "geometry": {
      "type": "Point",
      "coordinates": [2.395384, 48.862541]
    },
    "properties": {
      "name": "GUESDE Jules",
      "type": "edifice_religieux"
    }
  }, {
    "id": "2289427",
    "type": "Feature",
    "geometry": {
      "type": "Point",
      "coordinates": [2.39429, 48.860535]
    },
    "properties": {
      "name": "HAHNEMANN Samuel",
      "type": "edifice_religieux"
    }
  }, {
    "id": "2289428",
    "type": "Feature",
    "geometry": {
      "type": "Point",
      "coordinates": [2.393592, 48.861794]
    },
    "properties": {
      "name": "HALIMI Gisèle",
      "type": "edifice_religieux"
    }
  }, {
    "id": "2289429",
    "type": "Feature",
    "geometry": {
      "type": "Point",
      "coordinates": [2.391179, 48.860748]
    },
    "properties": {
      "name": "HAUSSMANN Georges Eugène (Baron)",
      "type": "edifice_religieux"
    }
  }, {
    "id": "2289430",
    "type": "Feature",
    "geometry": {
      "type": "Point",
      "coordinates": [2.395191, 48.863132]
    },
    "properties": {
      "name": "HEDAYAT Sadegh",
      "type": "edifice_religieux"
    }
  }, {
    "id": "2289431",
    "type": "Feature",
    "geometry": {
      "type": "Point",
      "coordinates": [2.395363, 48.861057]
    },
    "properties": {
      "name": "HERNANDEZ Téo ",
      "type": "edifice_religieux"
    }
  }, {
    "id": "2289432",
    "type": "Feature",
    "geometry": {
      "type": "Point",
      "coordinates": [2.39484, 48.858574]
    },
    "properties": {
      "name": "HERSENT Louis ",
      "type": "edifice_religieux"
    }
  }, {
    "id": "2289433",
    "type": "Feature",
    "geometry": {
      "type": "Point",
      "coordinates": [2.393582, 48.860359]
    },
    "properties": {
      "name": "HIGELIN Jacques",
      "type": "edifice_religieux"
    }
  }, {
    "id": "2289434",
    "type": "Feature",
    "geometry": {
      "type": "Point",
      "coordinates": [2.39223, 48.860889]
    },
    "properties": {
      "name": "HOFF Ignace ",
      "type": "edifice_religieux"
    }
  }, {
    "id": "2289435",
    "type": "Feature",
    "geometry": {
      "type": "Point",
      "coordinates": [2.394526, 48.861668]
    },
    "properties": {
      "name": "HOLGADO Ticky ",
      "type": "edifice_religieux"
    }
  }, {
    "id": "2289436",
    "type": "Feature",
    "geometry": {
      "type": "Point",
      "coordinates": [2.395406, 48.859829]
    },
    "properties": {
      "name": "HUGO Joseph Léopold Sigisbert",
      "type": "edifice_religieux"
    }
  }, {
    "id": "2289437",
    "type": "Feature",
    "geometry": {
      "type": "Point",
      "coordinates": [2.393908, 48.859352]
    },
    "properties": {
      "name": "HÜKÜM Ugür ",
      "type": "edifice_religieux"
    }
  }, {
    "id": "2289438",
    "type": "Feature",
    "geometry": {
      "type": "Point",
      "coordinates": [2.395316, 48.863182]
    },
    "properties": {
      "name": "Idir (CHERIET Hamid)",
      "type": "edifice_religieux"
    }
  }, {
    "id": "2289439",
    "type": "Feature",
    "geometry": {
      "type": "Point",
      "coordinates": [2.394333, 48.861412]
    },
    "properties": {
      "name": "INGRES Jean-Auguste-Dominique",
      "type": "edifice_religieux"
    }
  }, {
    "id": "2289440",
    "type": "Feature",
    "geometry": {
      "type": "Point",
      "coordinates": [2.395362, 48.858459]
    },
    "properties": {
      "name": "ITASSE Adolphe ",
      "type": "edifice_religieux"
    }
  }, {
    "id": "2289441",
    "type": "Feature",
    "geometry": {
      "type": "Point",
      "coordinates": [2.39826, 48.860226]
    },
    "properties": {
      "name": "JOFFRIN Jules ",
      "type": "edifice_religieux"
    }
  }, {
    "id": "2289442",
    "type": "Feature",
    "geometry": {
      "type": "Point",
      "coordinates": [2.397015, 48.863049]
    },
    "properties": {
      "name": "JOUHAUX Léon",
      "type": "edifice_religieux"
    }
  }, {
    "id": "2289443",
    "type": "Feature",
    "geometry": {
      "type": "Point",
      "coordinates": [2.394109, 48.862091]
    },
    "properties": {
      "name": "KARINA Anna",
      "type": "edifice_religieux"
    }
  }, {
    "id": "2289444",
    "type": "Feature",
    "geometry": {
      "type": "Point",
      "coordinates": [2.394569, 48.859776]
    },
    "properties": {
      "name": "KELLERMANN François Étienne",
      "type": "edifice_religieux"
    }
  }, {
    "id": "2289445",
    "type": "Feature",
    "geometry": {
      "type": "Point",
      "coordinates": [2.394688, 48.861355]
    },
    "properties": {
      "name": "KHORSAND Philippe ",
      "type": "edifice_religieux"
    }
  }, {
    "id": "2289446",
    "type": "Feature",
    "geometry": {
      "type": "Point",
      "coordinates": [2.399038, 48.859417]
    },
    "properties": {
      "name": "KRASUCKI Henri ",
      "type": "edifice_religieux"
    }
  }, {
    "id": "2289447",
    "type": "Feature",
    "geometry": {
      "type": "Point",
      "coordinates": [2.395062, 48.860565]
    },
    "properties": {
      "name": "LA FONTAINE Jean Anthelme (de)",
      "type": "edifice_religieux"
    }
  }, {
    "id": "2289448",
    "type": "Feature",
    "geometry": {
      "type": "Point",
      "coordinates": [2.392937, 48.862812]
    },
    "properties": {
      "name": "LACHAMBEAUDIE Pierre ",
      "type": "edifice_religieux"
    }
  }, {
    "id": "4401895",
    "type": "Feature",
    "geometry": {
      "type": "Point",
      "coordinates": [2.393449, 48.863342]
    },
    "properties": {
      "name": "LAFFONT Patrice",
      "type": "edifice_religieux"
    }
  }, {
    "id": "2289449",
    "type": "Feature",
    "geometry": {
      "type": "Point",
      "coordinates": [2.393474, 48.862244]
    },
    "properties": {
      "name": "LAFORÊT Marie",
      "type": "edifice_religieux"
    }
  }, {
    "id": "2289450",
    "type": "Feature",
    "geometry": {
      "type": "Point",
      "coordinates": [2.393472, 48.861855]
    },
    "properties": {
      "name": "LAMY Étienne ",
      "type": "edifice_religieux"
    }
  }, {
    "id": "2289451",
    "type": "Feature",
    "geometry": {
      "type": "Point",
      "coordinates": [2.392592, 48.861855]
    },
    "properties": {
      "name": "LAPIDUS Ted",
      "type": "edifice_religieux"
    }
  }, {
    "id": "2289452",
    "type": "Feature",
    "geometry": {
      "type": "Point",
      "coordinates": [2.397444, 48.862923]
    },
    "properties": {
      "name": "LAURENCIN Marie",
      "type": "edifice_religieux"
    }
  }, {
    "id": "2289453",
    "type": "Feature",
    "geometry": {
      "type": "Point",
      "coordinates": [2.39532, 48.860649]
    },
    "properties": {
      "name": "LAVALLÉE Alphonse ",
      "type": "edifice_religieux"
    }
  }, {
    "id": "2289454",
    "type": "Feature",
    "geometry": {
      "type": "Point",
      "coordinates": [2.391479, 48.859364]
    },
    "properties": {
      "name": "LAZAREFF Hélène ",
      "type": "edifice_religieux"
    }
  }, {
    "id": "2289455",
    "type": "Feature",
    "geometry": {
      "type": "Point",
      "coordinates": [2.391479, 48.859364]
    },
    "properties": {
      "name": "LAZAREFF Pierre ",
      "type": "edifice_religieux"
    }
  }, {
    "id": "2289456",
    "type": "Feature",
    "geometry": {
      "type": "Point",
      "coordinates": [2.39356, 48.85918]
    },
    "properties": {
      "name": "LEBRUN Charles-François ",
      "type": "edifice_religieux"
    }
  }, {
    "id": "2289457",
    "type": "Feature",
    "geometry": {
      "type": "Point",
      "coordinates": [2.391565, 48.860706]
    },
    "properties": {
      "name": "LEDRU-ROLLIN Alexandre",
      "type": "edifice_religieux"
    }
  }, {
    "id": "2289458",
    "type": "Feature",
    "geometry": {
      "type": "Point",
      "coordinates": [2.394267, 48.862103]
    },
    "properties": {
      "name": "LEFEL Édith ",
      "type": "edifice_religieux"
    }
  }, {
    "id": "2289459",
    "type": "Feature",
    "geometry": {
      "type": "Point",
      "coordinates": [2.393892, 48.861145]
    },
    "properties": {
      "name": "LEMELAND Aubert ",
      "type": "edifice_religieux"
    }
  }, {
    "id": "2289460",
    "type": "Feature",
    "geometry": {
      "type": "Point",
      "coordinates": [2.394503, 48.858803]
    },
    "properties": {
      "name": "LESSEPS Ferdinand de",
      "type": "edifice_religieux"
    }
  }, {
    "id": "2289461",
    "type": "Feature",
    "geometry": {
      "type": "Point",
      "coordinates": [2.393517, 48.85873]
    },
    "properties": {
      "name": "LYOTARD Jean-François ",
      "type": "edifice_religieux"
    }
  }, {
    "id": "2289462",
    "type": "Feature",
    "geometry": {
      "type": "Point",
      "coordinates": [2.396391, 48.858624]
    },
    "properties": {
      "name": "MACDONALD Étienne-Jacques-Joseph ",
      "type": "edifice_religieux"
    }
  }, {
    "id": "2289463",
    "type": "Feature",
    "geometry": {
      "type": "Point",
      "coordinates": [2.394783, 48.859718]
    },
    "properties": {
      "name": "MANOIR Yves du",
      "type": "edifice_religieux"
    }
  }, {
    "id": "2289464",
    "type": "Feature",
    "geometry": {
      "type": "Point",
      "coordinates": [2.392732, 48.862514]
    },
    "properties": {
      "name": "MAQUET Auguste",
      "type": "edifice_religieux"
    }
  }, {
    "id": "2289465",
    "type": "Feature",
    "geometry": {
      "type": "Point",
      "coordinates": [2.393314, 48.860878]
    },
    "properties": {
      "name": "MARCEAU Marcel ",
      "type": "edifice_religieux"
    }
  }, {
    "id": "2289466",
    "type": "Feature",
    "geometry": {
      "type": "Point",
      "coordinates": [2.399676, 48.859745]
    },
    "properties": {
      "name": "MARCHAIS Georges ",
      "type": "edifice_religieux"
    }
  }, {
    "id": "2289467",
    "type": "Feature",
    "geometry": {
      "type": "Point",
      "coordinates": [2.39702, 48.861469]
    },
    "properties": {
      "name": "MARINOVITCH Pierre ",
      "type": "edifice_religieux"
    }
  }, {
    "id": "2289468",
    "type": "Feature",
    "geometry": {
      "type": "Point",
      "coordinates": [2.396586, 48.859013]
    },
    "properties": {
      "name": "MASSÉNA André",
      "type": "edifice_religieux"
    }
  }, {
    "id": "2289469",
    "type": "Feature",
    "geometry": {
      "type": "Point",
      "coordinates": [2.390664, 48.863331]
    },
    "properties": {
      "name": "MÉLIÈS Georges",
      "type": "edifice_religieux"
    }
  }, {
    "id": "2289470",
    "type": "Feature",
    "geometry": {
      "type": "Point",
      "coordinates": [2.393196, 48.862286]
    },
    "properties": {
      "name": "MERLEAU-PONTY Maurice ",
      "type": "edifice_religieux"
    }
  }, {
    "id": "2289471",
    "type": "Feature",
    "geometry": {
      "type": "Point",
      "coordinates": [2.393045, 48.862568]
    },
    "properties": {
      "name": "MICHELET Jules",
      "type": "edifice_religieux"
    }
  }, {
    "id": "2289472",
    "type": "Feature",
    "geometry": {
      "type": "Point",
      "coordinates": [2.39022, 48.862961]
    },
    "properties": {
      "name": "MIOLAN-CARVALHO Caroline ",
      "type": "edifice_religieux"
    }
  }, {
    "id": "2289473",
    "type": "Feature",
    "geometry": {
      "type": "Point",
      "coordinates": [2.398515, 48.859802]
    },
    "properties": {
      "name": "MODIGLIANI Amedeo",
      "type": "edifice_religieux"
    }
  }, {
    "id": "2289474",
    "type": "Feature",
    "geometry": {
      "type": "Point",
      "coordinates": [2.395105, 48.860535]
    },
    "properties": {
      "name": "MOLIÈRE (Jean-Baptiste POQUELIN)",
      "type": "edifice_religieux"
    }
  }, {
    "id": "2289475",
    "type": "Feature",
    "geometry": {
      "type": "Point",
      "coordinates": [2.39841, 48.86124]
    },
    "properties": {
      "name": "MONFORT Silvia",
      "type": "edifice_religieux"
    }
  }, {
    "id": "2289476",
    "type": "Feature",
    "geometry": {
      "type": "Point",
      "coordinates": [2.393603, 48.86021]
    },
    "properties": {
      "name": "MONGE Gaspard",
      "type": "edifice_religieux"
    }
  }, {
    "id": "2289477",
    "type": "Feature",
    "geometry": {
      "type": "Point",
      "coordinates": [2.395535, 48.861893]
    },
    "properties": {
      "name": "MONTAND Yves",
      "type": "edifice_religieux"
    }
  }, {
    "id": "2289478",
    "type": "Feature",
    "geometry": {
      "type": "Point",
      "coordinates": [2.393752, 48.859268]
    },
    "properties": {
      "name": "MORRISON Jim",
      "type": "edifice_religieux"
    }
  }, {
    "id": "2289479",
    "type": "Feature",
    "geometry": {
      "type": "Point",
      "coordinates": [2.391264, 48.863129]
    },
    "properties": {
      "name": "MOUCHOTTE René ",
      "type": "edifice_religieux"
    }
  }, {
    "id": "2289480",
    "type": "Feature",
    "geometry": {
      "type": "Point",
      "coordinates": [2.395277, 48.861156]
    },
    "properties": {
      "name": "MOULOUDJI Marcel",
      "type": "edifice_religieux"
    }
  }, {
    "id": "2289481",
    "type": "Feature",
    "geometry": {
      "type": "Point",
      "coordinates": [2.397263, 48.859928]
    },
    "properties": {
      "name": "MOUSTAKI Georges",
      "type": "edifice_religieux"
    }
  }, {
    "id": "2289482",
    "type": "Feature",
    "geometry": {
      "type": "Point",
      "coordinates": [2.396672, 48.85907]
    },
    "properties": {
      "name": "MURAT Joachim",
      "type": "edifice_religieux"
    }
  }, {
    "id": "2289483",
    "type": "Feature",
    "geometry": {
      "type": "Point",
      "coordinates": [2.391114, 48.860722]
    },
    "properties": {
      "name": "MUSSET Alfred (de)",
      "type": "edifice_religieux"
    }
  }, {
    "id": "2289484",
    "type": "Feature",
    "geometry": {
      "type": "Point",
      "coordinates": [2.397037, 48.858982]
    },
    "properties": {
      "name": "NADAR (Gaspard-Félix TOURNACHON)",
      "type": "edifice_religieux"
    }
  }, {
    "id": "2289485",
    "type": "Feature",
    "geometry": {
      "type": "Point",
      "coordinates": [2.393174, 48.86274]
    },
    "properties": {
      "name": "NERVAL Gérard de",
      "type": "edifice_religieux"
    }
  }, {
    "id": "2289486",
    "type": "Feature",
    "geometry": {
      "type": "Point",
      "coordinates": [2.396071, 48.858772]
    },
    "properties": {
      "name": "NEY Michel",
      "type": "edifice_religieux"
    }
  }, {
    "id": "2289487",
    "type": "Feature",
    "geometry": {
      "type": "Point",
      "coordinates": [2.395706, 48.859039]
    },
    "properties": {
      "name": "NOAILLES Anna de",
      "type": "edifice_religieux"
    }
  }, {
    "id": "2289488",
    "type": "Feature",
    "geometry": {
      "type": "Point",
      "coordinates": [2.397383, 48.859592]
    },
    "properties": {
      "name": "NOËL Tony ",
      "type": "edifice_religieux"
    }
  }, {
    "id": "2289489",
    "type": "Feature",
    "geometry": {
      "type": "Point",
      "coordinates": [2.39738, 48.862087]
    },
    "properties": {
      "name": "NOHAIN Jean",
      "type": "edifice_religieux"
    }
  }, {
    "id": "2289490",
    "type": "Feature",
    "geometry": {
      "type": "Point",
      "coordinates": [2.396543, 48.860821]
    },
    "properties": {
      "name": "NOIR Victor",
      "type": "edifice_religieux"
    }
  }, {
    "id": "2289491",
    "type": "Feature",
    "geometry": {
      "type": "Point",
      "coordinates": [2.396071, 48.859688]
    },
    "properties": {
      "name": "OBERKAMPF Christophe-Philippe ",
      "type": "edifice_religieux"
    }
  }, {
    "id": "2289492",
    "type": "Feature",
    "geometry": {
      "type": "Point",
      "coordinates": [2.395363, 48.862568]
    },
    "properties": {
      "name": "OPHÜLS Max",
      "type": "edifice_religieux"
    }
  }, {
    "id": "2289493",
    "type": "Feature",
    "geometry": {
      "type": "Point",
      "coordinates": [2.395556, 48.85804]
    },
    "properties": {
      "name": "OUSSEKINE Malik",
      "type": "edifice_religieux"
    }
  }, {
    "id": "2289494",
    "type": "Feature",
    "geometry": {
      "type": "Point",
      "coordinates": [2.399418, 48.860481]
    },
    "properties": {
      "name": "OZANIAN Andranik ",
      "type": "edifice_religieux"
    }
  }, {
    "id": "2289495",
    "type": "Feature",
    "geometry": {
      "type": "Point",
      "coordinates": [2.395771, 48.858475]
    },
    "properties": {
      "name": "PANHARD René ",
      "type": "edifice_religieux"
    }
  }, {
    "id": "2289496",
    "type": "Feature",
    "geometry": {
      "type": "Point",
      "coordinates": [2.395492, 48.860142]
    },
    "properties": {
      "name": "PARMENTIER Antoine",
      "type": "edifice_religieux"
    }
  }, {
    "id": "2289497",
    "type": "Feature",
    "geometry": {
      "type": "Point",
      "coordinates": [2.389536, 48.859867]
    },
    "properties": {
      "name": "PATACHOU (Henriette Ragon)",
      "type": "edifice_religieux"
    }
  }, {
    "id": "2289498",
    "type": "Feature",
    "geometry": {
      "type": "Point",
      "coordinates": [2.39363, 48.860023]
    },
    "properties": {
      "name": "PERIER Casimir ",
      "type": "edifice_religieux"
    }
  }, {
    "id": "2289499",
    "type": "Feature",
    "geometry": {
      "type": "Point",
      "coordinates": [2.394392, 48.859627]
    },
    "properties": {
      "name": "PERRIN Claude-Victor ",
      "type": "edifice_religieux"
    }
  }, {
    "id": "4401892",
    "type": "Feature",
    "geometry": {
      "type": "Point",
      "coordinates": [2.397819, 48.860252]
    },
    "properties": {
      "name": "PEUGEOT Armand",
      "type": "edifice_religieux"
    }
  }, {
    "id": "2289500",
    "type": "Feature",
    "geometry": {
      "type": "Point",
      "coordinates": [2.392874, 48.860058]
    },
    "properties": {
      "name": "PETRUCCIANI Michel",
      "type": "edifice_religieux"
    }
  }, {
    "id": "2289501",
    "type": "Feature",
    "geometry": {
      "type": "Point",
      "coordinates": [2.398894, 48.859684]
    },
    "properties": {
      "name": "PIAF Édith (Édith Giovanna Gassion)",
      "type": "edifice_religieux"
    }
  }, {
    "id": "2289502",
    "type": "Feature",
    "geometry": {
      "type": "Point",
      "coordinates": [2.398882, 48.859577]
    },
    "properties": {
      "name": "PINEAU Christian",
      "type": "edifice_religieux"
    }
  }, {
    "id": "2289503",
    "type": "Feature",
    "geometry": {
      "type": "Point",
      "coordinates": [2.39149, 48.859108]
    },
    "properties": {
      "name": "PISSARRO Camille",
      "type": "edifice_religieux"
    }
  }, {
    "id": "2289504",
    "type": "Feature",
    "geometry": {
      "type": "Point",
      "coordinates": [2.3938, 48.86076]
    },
    "properties": {
      "name": "PLANCHON Roger ",
      "type": "edifice_religieux"
    }
  }, {
    "id": "2289505",
    "type": "Feature",
    "geometry": {
      "type": "Point",
      "coordinates": [2.395191, 48.861809]
    },
    "properties": {
      "name": "PLANTE Jacques ",
      "type": "edifice_religieux"
    }
  }, {
    "id": "2289506",
    "type": "Feature",
    "geometry": {
      "type": "Point",
      "coordinates": [2.393131, 48.860508]
    },
    "properties": {
      "name": "PLEYEL Ignace Joseph",
      "type": "edifice_religieux"
    }
  }, {
    "id": "2289507",
    "type": "Feature",
    "geometry": {
      "type": "Point",
      "coordinates": [2.3974, 48.859257]
    },
    "properties": {
      "name": "PONCE Nicolas ",
      "type": "edifice_religieux"
    }
  }, {
    "id": "2289508",
    "type": "Feature",
    "geometry": {
      "type": "Point",
      "coordinates": [2.395985, 48.86319]
    },
    "properties": {
      "name": "POPESCO Elvire",
      "type": "edifice_religieux"
    }
  }, {
    "id": "2289509",
    "type": "Feature",
    "geometry": {
      "type": "Point",
      "coordinates": [2.39162, 48.862431]
    },
    "properties": {
      "name": "POTIN Félix",
      "type": "edifice_religieux"
    }
  }, {
    "id": "2289510",
    "type": "Feature",
    "geometry": {
      "type": "Point",
      "coordinates": [2.393088, 48.858757]
    },
    "properties": {
      "name": "POULENC Francis",
      "type": "edifice_religieux"
    }
  }, {
    "id": "2289511",
    "type": "Feature",
    "geometry": {
      "type": "Point",
      "coordinates": [2.391277, 48.861664]
    },
    "properties": {
      "name": "POZZO DI BORGO Charles André ",
      "type": "edifice_religieux"
    }
  }, {
    "id": "2289512",
    "type": "Feature",
    "geometry": {
      "type": "Point",
      "coordinates": [2.394204, 48.86079]
    },
    "properties": {
      "name": "PRADIER James ",
      "type": "edifice_religieux"
    }
  }, {
    "id": "2289513",
    "type": "Feature",
    "geometry": {
      "type": "Point",
      "coordinates": [2.394975, 48.863071]
    },
    "properties": {
      "name": "PROUST Marcel",
      "type": "edifice_religieux"
    }
  }, {
    "id": "2289514",
    "type": "Feature",
    "geometry": {
      "type": "Point",
      "coordinates": [2.391114, 48.859562]
    },
    "properties": {
      "name": "RACHEL ou Mademoiselle RACHEL (Élisabeth RACHEL FÉLIX)",
      "type": "edifice_religieux"
    }
  }, {
    "id": "2289515",
    "type": "Feature",
    "geometry": {
      "type": "Point",
      "coordinates": [2.396443, 48.863605]
    },
    "properties": {
      "name": "RAOUX Olivier ",
      "type": "edifice_religieux"
    }
  }, {
    "id": "2289516",
    "type": "Feature",
    "geometry": {
      "type": "Point",
      "coordinates": [2.393904, 48.860142]
    },
    "properties": {
      "name": "RASPAIL François-Vincent",
      "type": "edifice_religieux"
    }
  }, {
    "id": "2289517",
    "type": "Feature",
    "geometry": {
      "type": "Point",
      "coordinates": [2.394354, 48.861115]
    },
    "properties": {
      "name": "RICHEBOURG Louis Pierre Quentin de",
      "type": "edifice_religieux"
    }
  }, {
    "id": "2289518",
    "type": "Feature",
    "geometry": {
      "type": "Point",
      "coordinates": [2.393418, 48.861065]
    },
    "properties": {
      "name": "RIZZO Willy ",
      "type": "edifice_religieux"
    }
  }, {
    "id": "2289519",
    "type": "Feature",
    "geometry": {
      "type": "Point",
      "coordinates": [2.392359, 48.859436]
    },
    "properties": {
      "name": "ROBERTSON Étienne (Étienne-Gaspart ROBERT)",
      "type": "edifice_religieux"
    }
  }, {
    "id": "2289520",
    "type": "Feature",
    "geometry": {
      "type": "Point",
      "coordinates": [2.391479, 48.859322]
    },
    "properties": {
      "name": "ROBLÈS Jacob ",
      "type": "edifice_religieux"
    }
  }, {
    "id": "2289521",
    "type": "Feature",
    "geometry": {
      "type": "Point",
      "coordinates": [2.394767, 48.85844]
    },
    "properties": {
      "name": "RODENBACH Georges",
      "type": "edifice_religieux"
    }
  }, {
    "id": "2289522",
    "type": "Feature",
    "geometry": {
      "type": "Point",
      "coordinates": [2.390428, 48.860111]
    },
    "properties": {
      "name": "ROMAINS Jules",
      "type": "edifice_religieux"
    }
  }, {
    "id": "2289523",
    "type": "Feature",
    "geometry": {
      "type": "Point",
      "coordinates": [2.39105, 48.860706]
    },
    "properties": {
      "name": "ROSSINI Gioachino",
      "type": "edifice_religieux"
    }
  }, {
    "id": "2289524",
    "type": "Feature",
    "geometry": {
      "type": "Point",
      "coordinates": [2.391286, 48.859352]
    },
    "properties": {
      "name": "ROTHSCHILD James de",
      "type": "edifice_religieux"
    }
  }, {
    "id": "2289525",
    "type": "Feature",
    "geometry": {
      "type": "Point",
      "coordinates": [2.395642, 48.859688]
    },
    "properties": {
      "name": "ROUVROY de SAINT-SIMON Claude-Henri de",
      "type": "edifice_religieux"
    }
  }, {
    "id": "2289526",
    "type": "Feature",
    "geometry": {
      "type": "Point",
      "coordinates": [2.396672, 48.858982]
    },
    "properties": {
      "name": "RUTY Charles-Étienne-François ",
      "type": "edifice_religieux"
    }
  }, {
    "id": "2289527",
    "type": "Feature",
    "geometry": {
      "type": "Point",
      "coordinates": [2.398839, 48.859634]
    },
    "properties": {
      "name": "SALVADOR Henri ",
      "type": "edifice_religieux"
    }
  }, {
    "id": "2289528",
    "type": "Feature",
    "geometry": {
      "type": "Point",
      "coordinates": [2.396586, 48.859039]
    },
    "properties": {
      "name": "SANS-GÊNE Madame (Catherine HUBSCHER)",
      "type": "edifice_religieux"
    }
  }, {
    "id": "2289529",
    "type": "Feature",
    "geometry": {
      "type": "Point",
      "coordinates": [2.396377, 48.858578]
    },
    "properties": {
      "name": "SAY Horace Émile ",
      "type": "edifice_religieux"
    }
  }, {
    "id": "2289530",
    "type": "Feature",
    "geometry": {
      "type": "Point",
      "coordinates": [2.393947, 48.861412]
    },
    "properties": {
      "name": "SCHŒLCHER Victor",
      "type": "edifice_religieux"
    }
  }, {
    "id": "2289531",
    "type": "Feature",
    "geometry": {
      "type": "Point",
      "coordinates": [2.397187, 48.859364]
    },
    "properties": {
      "name": "SCRIBE Eugène ",
      "type": "edifice_religieux"
    }
  }, {
    "id": "4401887",
    "type": "Feature",
    "geometry": {
      "type": "Point",
      "coordinates": [2.397585, 48.862034]
    },
    "properties": {
      "name": "SENLIS Michelle",
      "type": "edifice_religieux"
    }
  }, {
    "id": "2289532",
    "type": "Feature",
    "geometry": {
      "type": "Point",
      "coordinates": [2.390531, 48.86235]
    },
    "properties": {
      "name": "SEURAT Georges",
      "type": "edifice_religieux"
    }
  }, {
    "id": "2289533",
    "type": "Feature",
    "geometry": {
      "type": "Point",
      "coordinates": [2.392553, 48.861469]
    },
    "properties": {
      "name": "SÈZE Raymond de",
      "type": "edifice_religieux"
    }
  }, {
    "id": "2289534",
    "type": "Feature",
    "geometry": {
      "type": "Point",
      "coordinates": [2.395599, 48.858532]
    },
    "properties": {
      "name": "SIEYÈS Emmanuel-Joseph ",
      "type": "edifice_religieux"
    }
  }, {
    "id": "2289535",
    "type": "Feature",
    "geometry": {
      "type": "Point",
      "coordinates": [2.395535, 48.861893]
    },
    "properties": {
      "name": "SIGNORET Simone",
      "type": "edifice_religieux"
    }
  }, {
    "id": "2289536",
    "type": "Feature",
    "geometry": {
      "type": "Point",
      "coordinates": [2.391737, 48.859039]
    },
    "properties": {
      "name": "SINTZHEIM David ",
      "type": "edifice_religieux"
    }
  }, {
    "id": "2289537",
    "type": "Feature",
    "geometry": {
      "type": "Point",
      "coordinates": [2.392552, 48.860451]
    },
    "properties": {
      "name": "SOLO Mano (Emmanuel CABUT)",
      "type": "edifice_religieux"
    }
  }, {
    "id": "2289538",
    "type": "Feature",
    "geometry": {
      "type": "Point",
      "coordinates": [2.392869, 48.862862]
    },
    "properties": {
      "name": "SOULIÉ Frédéric ",
      "type": "edifice_religieux"
    }
  }, {
    "id": "2289539",
    "type": "Feature",
    "geometry": {
      "type": "Point",
      "coordinates": [2.393178, 48.862835]
    },
    "properties": {
      "name": "SOUVESTRE Émile ",
      "type": "edifice_religieux"
    }
  }, {
    "id": "2289540",
    "type": "Feature",
    "geometry": {
      "type": "Point",
      "coordinates": [2.399375, 48.86079]
    },
    "properties": {
      "name": "STEIN Gertrude",
      "type": "edifice_religieux"
    }
  }, {
    "id": "2289541",
    "type": "Feature",
    "geometry": {
      "type": "Point",
      "coordinates": [2.394977, 48.859577]
    },
    "properties": {
      "name": "STROGANOFF Élisabeth Alexandrovna",
      "type": "edifice_religieux"
    }
  }, {
    "id": "2289542",
    "type": "Feature",
    "geometry": {
      "type": "Point",
      "coordinates": [2.396929, 48.859352]
    },
    "properties": {
      "name": "SUCHET Louis-Gabriel",
      "type": "edifice_religieux"
    }
  }, {
    "id": "2289543",
    "type": "Feature",
    "geometry": {
      "type": "Point",
      "coordinates": [2.392895, 48.861088]
    },
    "properties": {
      "name": "THIERS Adolphe ",
      "type": "edifice_religieux"
    }
  }, {
    "id": "2289544",
    "type": "Feature",
    "geometry": {
      "type": "Point",
      "coordinates": [2.39989, 48.859943]
    },
    "properties": {
      "name": "THOREZ Maurice",
      "type": "edifice_religieux"
    }
  }, {
    "id": "2289545",
    "type": "Feature",
    "geometry": {
      "type": "Point",
      "coordinates": [2.395298, 48.859703]
    },
    "properties": {
      "name": "TISSANDIER Gaston ",
      "type": "edifice_religieux"
    }
  }, {
    "id": "2289546",
    "type": "Feature",
    "geometry": {
      "type": "Point",
      "coordinates": [2.391873, 48.861534]
    },
    "properties": {
      "name": "TOPART Jean ",
      "type": "edifice_religieux"
    }
  }, {
    "id": "2289547",
    "type": "Feature",
    "geometry": {
      "type": "Point",
      "coordinates": [2.394891, 48.861214]
    },
    "properties": {
      "name": "TOSCAN du PLANTIER Daniel ",
      "type": "edifice_religieux"
    }
  }, {
    "id": "2289548",
    "type": "Feature",
    "geometry": {
      "type": "Point",
      "coordinates": [2.395302, 48.858463]
    },
    "properties": {
      "name": "TRELLIARD Anne-François-Charles ",
      "type": "edifice_religieux"
    }
  }, {
    "id": "2289549",
    "type": "Feature",
    "geometry": {
      "type": "Point",
      "coordinates": [2.394912, 48.861187]
    },
    "properties": {
      "name": "TRINTIGNANT Marie",
      "type": "edifice_religieux"
    }
  }, {
    "id": "2289550",
    "type": "Feature",
    "geometry": {
      "type": "Point",
      "coordinates": [2.39532, 48.86113]
    },
    "properties": {
      "name": "TRIQUETI Henry de",
      "type": "edifice_religieux"
    }
  }, {
    "id": "2289551",
    "type": "Feature",
    "geometry": {
      "type": "Point",
      "coordinates": [2.399869, 48.860142]
    },
    "properties": {
      "name": "VAILLANT-COUTURIER Paul",
      "type": "edifice_religieux"
    }
  }, {
    "id": "2289552",
    "type": "Feature",
    "geometry": {
      "type": "Point",
      "coordinates": [2.390342, 48.862286]
    },
    "properties": {
      "name": "VALLÈS Jules",
      "type": "edifice_religieux"
    }
  }, {
    "id": "2289553",
    "type": "Feature",
    "geometry": {
      "type": "Point",
      "coordinates": [2.393003, 48.860107]
    },
    "properties": {
      "name": "VANARSKY Jack ",
      "type": "edifice_religieux"
    }
  }, {
    "id": "2289554",
    "type": "Feature",
    "geometry": {
      "type": "Point",
      "coordinates": [2.39293, 48.85994]
    },
    "properties": {
      "name": "VANIA VILERS Vania ",
      "type": "edifice_religieux"
    }
  }, {
    "id": "2289555",
    "type": "Feature",
    "geometry": {
      "type": "Point",
      "coordinates": [2.396157, 48.86367]
    },
    "properties": {
      "name": "VERNEUIL Louis",
      "type": "edifice_religieux"
    }
  }, {
    "id": "2289556",
    "type": "Feature",
    "geometry": {
      "type": "Point",
      "coordinates": [2.390878, 48.860649]
    },
    "properties": {
      "name": "VISCONTI Louis",
      "type": "edifice_religieux"
    }
  }, {
    "id": "2289557",
    "type": "Feature",
    "geometry": {
      "type": "Point",
      "coordinates": [2.392736, 48.860157]
    },
    "properties": {
      "name": "VIVANT DENON Dominique (Baron Denon ou dit Vivant Denon)",
      "type": "edifice_religieux"
    }
  }, {
    "id": "2289560",
    "type": "Feature",
    "geometry": {
      "type": "Point",
      "coordinates": [2.3962, 48.859165]
    },
    "properties": {
      "name": "WALLACE Richard",
      "type": "edifice_religieux"
    }
  }, {
    "id": "2289561",
    "type": "Feature",
    "geometry": {
      "type": "Point",
      "coordinates": [2.397947, 48.861805]
    },
    "properties": {
      "name": "WILDE Oscar",
      "type": "edifice_religieux"
    }
  }, {
    "id": "2289562",
    "type": "Feature",
    "geometry": {
      "type": "Point",
      "coordinates": [2.396071, 48.862144]
    },
    "properties": {
      "name": "ZAVATTA Achille",
      "type": "edifice_religieux"
    }
  }]
}